{
"type": "FeatureCollection",
"crs": { "type": "name", "properties": { "name": "urn:ogc:def:crs:OGC:1.3:CRS84" } },
                                                                                
"features": [
{ "type": "Feature", "properties": { "X": 67.110003, "Y": 36.703998, "OBJECTID_1": 1, "OBJECTID": 1808, "CITY_NAME": "Mazar-E Sharif", "GMI_ADMIN": "AFG-BLK", "ADMIN_NAME": "Balkh", "FIPS_CNTRY": "AF", "CNTRY_NAME": "Afghanistan", "STATUS": "Provincial capital", "POP": 303282.000000, "POP_RANK": 4.000000, "POP_CLASS": "250,000 to 499,999", "PORT_ID": 0.000000, "LABEL_FLAG": 0.000000 }, "geometry": { "type": "Point", "coordinates": [ 67.110003300081658, 36.703997997584025 ] } },
{ "type": "Feature", "properties": { "X": 65.744001, "Y": 36.662004, "OBJECTID_1": 2, "OBJECTID": 1809, "CITY_NAME": "Sheberghan", "GMI_ADMIN": "AFG-JWZ", "ADMIN_NAME": "Jowzjan", "FIPS_CNTRY": "AF", "CNTRY_NAME": "Afghanistan", "STATUS": "Provincial capital", "POP": 55641.000000, "POP_RANK": 6.000000, "POP_CLASS": "50,000 to 99,999", "PORT_ID": 0.000000, "LABEL_FLAG": 0.000000 }, "geometry": { "type": "Point", "coordinates": [ 65.744001391373786, 36.662004036883332 ] } },
{ "type": "Feature", "properties": { "X": 64.775997, "Y": 35.919999, "OBJECTID_1": 3, "OBJECTID": 1810, "CITY_NAME": "Meymaneh", "GMI_ADMIN": "AFG-FRY", "ADMIN_NAME": "Faryab", "FIPS_CNTRY": "AF", "CNTRY_NAME": "Afghanistan", "STATUS": "Provincial capital", "POP": -999.000000, "POP_RANK": 7.000000, "POP_CLASS": "Less than 50,000", "PORT_ID": 0.000000, "LABEL_FLAG": 0.000000 }, "geometry": { "type": "Point", "coordinates": [ 64.77599728147257, 35.919998973886756 ] } },
{ "type": "Feature", "properties": { "X": 63.133299, "Y": 34.983000, "OBJECTID_1": 4, "OBJECTID": 1811, "CITY_NAME": "Qal eh-ye", "GMI_ADMIN": "AFG-BDG", "ADMIN_NAME": "Badghis", "FIPS_CNTRY": "AF", "CNTRY_NAME": "Afghanistan", "STATUS": "Provincial capital", "POP": -999.000000, "POP_RANK": 7.000000, "POP_CLASS": "Less than 50,000", "PORT_ID": 0.000000, "LABEL_FLAG": 0.000000 }, "geometry": { "type": "Point", "coordinates": [ 63.133299414307601, 34.983000047334883 ] } },
{ "type": "Feature", "properties": { "X": 65.250000, "Y": 34.516701, "OBJECTID_1": 5, "OBJECTID": 1812, "CITY_NAME": "Chaghcharan", "GMI_ADMIN": "AFG-GHW", "ADMIN_NAME": "Ghowr", "FIPS_CNTRY": "AF", "CNTRY_NAME": "Afghanistan", "STATUS": "Provincial capital", "POP": -999.000000, "POP_RANK": 7.000000, "POP_CLASS": "Less than 50,000", "PORT_ID": 0.000000, "LABEL_FLAG": 0.000000 }, "geometry": { "type": "Point", "coordinates": [ 65.250000400099722, 34.516701020255489 ] } },
{ "type": "Feature", "properties": { "X": 62.187003, "Y": 34.344999, "OBJECTID_1": 6, "OBJECTID": 1813, "CITY_NAME": "Herat", "GMI_ADMIN": "AFG-HER", "ADMIN_NAME": "Herat", "FIPS_CNTRY": "AF", "CNTRY_NAME": "Afghanistan", "STATUS": "Provincial capital", "POP": -999.000000, "POP_RANK": 7.000000, "POP_CLASS": "Less than 50,000", "PORT_ID": 0.000000, "LABEL_FLAG": 1.000000 }, "geometry": { "type": "Point", "coordinates": [ 62.187003284588293, 34.344998981553978 ] } },
{ "type": "Feature", "properties": { "X": 65.866698, "Y": 32.633298, "OBJECTID_1": 7, "OBJECTID": 1821, "CITY_NAME": "Tarin Kowt", "GMI_ADMIN": "AFG-ORZ", "ADMIN_NAME": "Oruzgan", "FIPS_CNTRY": "AF", "CNTRY_NAME": "Afghanistan", "STATUS": "Provincial capital", "POP": -999.000000, "POP_RANK": 7.000000, "POP_CLASS": "Less than 50,000", "PORT_ID": 0.000000, "LABEL_FLAG": 0.000000 }, "geometry": { "type": "Point", "coordinates": [ 65.866698423157416, 32.63329806945093 ] } },
{ "type": "Feature", "properties": { "X": 62.116002, "Y": 32.374998, "OBJECTID_1": 8, "OBJECTID": 1822, "CITY_NAME": "Farah", "GMI_ADMIN": "AFG-FAR", "ADMIN_NAME": "Farah", "FIPS_CNTRY": "AF", "CNTRY_NAME": "Afghanistan", "STATUS": "Provincial capital", "POP": 43561.000000, "POP_RANK": 7.000000, "POP_CLASS": "Less than 50,000", "PORT_ID": 0.000000, "LABEL_FLAG": 1.000000 }, "geometry": { "type": "Point", "coordinates": [ 62.116002355248106, 32.374997935228855 ] } },
{ "type": "Feature", "properties": { "X": 66.899997, "Y": 32.104998, "OBJECTID_1": 9, "OBJECTID": 1823, "CITY_NAME": "Qalat", "GMI_ADMIN": "AFG-ZAB", "ADMIN_NAME": "Zabol", "FIPS_CNTRY": "AF", "CNTRY_NAME": "Afghanistan", "STATUS": "Provincial capital", "POP": -999.000000, "POP_RANK": 7.000000, "POP_CLASS": "Less than 50,000", "PORT_ID": 0.000000, "LABEL_FLAG": 0.000000 }, "geometry": { "type": "Point", "coordinates": [ 66.899997421206294, 32.104997941304127 ] } },
{ "type": "Feature", "properties": { "X": 65.700000, "Y": 31.610997, "OBJECTID_1": 10, "OBJECTID": 1824, "CITY_NAME": "Kandahar", "GMI_ADMIN": "AFG-QND", "ADMIN_NAME": "Quandahar", "FIPS_CNTRY": "AF", "CNTRY_NAME": "Afghanistan", "STATUS": "Provincial capital", "POP": 391190.000000, "POP_RANK": 4.000000, "POP_CLASS": "250,000 to 499,999", "PORT_ID": 0.000000, "LABEL_FLAG": 0.000000 }, "geometry": { "type": "Point", "coordinates": [ 65.700000445402026, 31.610996949709886 ] } },
{ "type": "Feature", "properties": { "X": 64.359999, "Y": 31.582998, "OBJECTID_1": 11, "OBJECTID": 1825, "CITY_NAME": "Lashkar Gah", "GMI_ADMIN": "AFG-HLM", "ADMIN_NAME": "Helmand", "FIPS_CNTRY": "AF", "CNTRY_NAME": "Afghanistan", "STATUS": "Provincial capital", "POP": -999.000000, "POP_RANK": 7.000000, "POP_CLASS": "Less than 50,000", "PORT_ID": 0.000000, "LABEL_FLAG": 0.000000 }, "geometry": { "type": "Point", "coordinates": [ 64.359999329361941, 31.58299794123236 ] } },
{ "type": "Feature", "properties": { "X": 61.886997, "Y": 31.112001, "OBJECTID_1": 12, "OBJECTID": 1826, "CITY_NAME": "Zaranj", "GMI_ADMIN": "AFG-NMR", "ADMIN_NAME": "Nimruz", "FIPS_CNTRY": "AF", "CNTRY_NAME": "Afghanistan", "STATUS": "Provincial capital", "POP": -999.000000, "POP_RANK": 7.000000, "POP_CLASS": "Less than 50,000", "PORT_ID": 0.000000, "LABEL_FLAG": 0.000000 }, "geometry": { "type": "Point", "coordinates": [ 61.886997296759809, 31.112000999827917 ] } },
{ "type": "Feature", "properties": { "X": 68.416704, "Y": 32.850000, "OBJECTID_1": 13, "OBJECTID": 1837, "CITY_NAME": "Zareh Sharan", "GMI_ADMIN": "AFG-PKT", "ADMIN_NAME": "Paktika", "FIPS_CNTRY": "AF", "CNTRY_NAME": "Afghanistan", "STATUS": "Provincial capital", "POP": 7366.000000, "POP_RANK": 7.000000, "POP_CLASS": "Less than 50,000", "PORT_ID": 0.000000, "LABEL_FLAG": 0.000000 }, "geometry": { "type": "Point", "coordinates": [ 68.416704305120646, 32.850000078910483 ] } },
{ "type": "Feature", "properties": { "X": 69.224004, "Y": 33.597999, "OBJECTID_1": 14, "OBJECTID": 1840, "CITY_NAME": "Gardez", "GMI_ADMIN": "AFG-PAK", "ADMIN_NAME": "Paktia", "FIPS_CNTRY": "AF", "CNTRY_NAME": "Afghanistan", "STATUS": "Provincial capital", "POP": 103601.000000, "POP_RANK": 5.000000, "POP_CLASS": "100,000 to 249,999", "PORT_ID": 0.000000, "LABEL_FLAG": 0.000000 }, "geometry": { "type": "Point", "coordinates": [ 69.224004420846953, 33.597998960551585 ] } },
{ "type": "Feature", "properties": { "X": 68.419998, "Y": 33.552000, "OBJECTID_1": 15, "OBJECTID": 1841, "CITY_NAME": "Ghazni", "GMI_ADMIN": "AFG-GHZ", "ADMIN_NAME": "Ghazni", "FIPS_CNTRY": "AF", "CNTRY_NAME": "Afghanistan", "STATUS": "Provincial capital", "POP": 141000.000000, "POP_RANK": 5.000000, "POP_CLASS": "100,000 to 249,999", "PORT_ID": 0.000000, "LABEL_FLAG": 1.000000 }, "geometry": { "type": "Point", "coordinates": [ 68.419998422775961, 33.551999964260432 ] } },
{ "type": "Feature", "properties": { "X": 70.466697, "Y": 34.433298, "OBJECTID_1": 16, "OBJECTID": 1855, "CITY_NAME": "Jalabad", "GMI_ADMIN": "AFG-NNG", "ADMIN_NAME": "Nangarhar", "FIPS_CNTRY": "AF", "CNTRY_NAME": "Afghanistan", "STATUS": "Provincial capital", "POP": 200331.000000, "POP_RANK": 5.000000, "POP_CLASS": "100,000 to 249,999", "PORT_ID": 0.000000, "LABEL_FLAG": 0.000000 }, "geometry": { "type": "Point", "coordinates": [ 70.466697339348485, 34.433297918299886 ] } },
{ "type": "Feature", "properties": { "X": 70.578999, "Y": 37.121004, "OBJECTID_1": 17, "OBJECTID": 1859, "CITY_NAME": "Feyzabad", "GMI_ADMIN": "AFG-BDK", "ADMIN_NAME": "Badakhshan", "FIPS_CNTRY": "AF", "CNTRY_NAME": "Afghanistan", "STATUS": "Provincial capital", "POP": 40276.000000, "POP_RANK": 7.000000, "POP_CLASS": "Less than 50,000", "PORT_ID": 0.000000, "LABEL_FLAG": 0.000000 }, "geometry": { "type": "Point", "coordinates": [ 70.578999349633619, 37.121004076180505 ] } },
{ "type": "Feature", "properties": { "X": 69.540003, "Y": 36.729999, "OBJECTID_1": 18, "OBJECTID": 1860, "CITY_NAME": "Taloqan", "GMI_ADMIN": "AFG-TKH", "ADMIN_NAME": "Takhar", "FIPS_CNTRY": "AF", "CNTRY_NAME": "Afghanistan", "STATUS": "Provincial capital", "POP": 64256.000000, "POP_RANK": 6.000000, "POP_CLASS": "50,000 to 99,999", "PORT_ID": 0.000000, "LABEL_FLAG": 0.000000 }, "geometry": { "type": "Point", "coordinates": [ 69.540003411224319, 36.72999895561567 ] } },
{ "type": "Feature", "properties": { "X": 68.859999, "Y": 36.727002, "OBJECTID_1": 19, "OBJECTID": 1861, "CITY_NAME": "Konduz", "GMI_ADMIN": "AFG-KNZ", "ADMIN_NAME": "Konduz", "FIPS_CNTRY": "AF", "CNTRY_NAME": "Afghanistan", "STATUS": "Provincial capital", "POP": 161902.000000, "POP_RANK": 5.000000, "POP_CLASS": "100,000 to 249,999", "PORT_ID": 0.000000, "LABEL_FLAG": 1.000000 }, "geometry": { "type": "Point", "coordinates": [ 68.859999282921464, 36.727002046973219 ] } },
{ "type": "Feature", "properties": { "X": 71.150004, "Y": 34.866000, "OBJECTID_1": 20, "OBJECTID": 1862, "CITY_NAME": "Asadabad", "GMI_ADMIN": "AFG-KNR", "ADMIN_NAME": "Konarha", "FIPS_CNTRY": "AF", "CNTRY_NAME": "Afghanistan", "STATUS": "Provincial capital", "POP": 59617.000000, "POP_RANK": 6.000000, "POP_CLASS": "50,000 to 99,999", "PORT_ID": 0.000000, "LABEL_FLAG": 0.000000 }, "geometry": { "type": "Point", "coordinates": [ 71.150004355558764, 34.865999955909153 ] } },
{ "type": "Feature", "properties": { "X": 68.040000, "Y": 36.261000, "OBJECTID_1": 21, "OBJECTID": 1864, "CITY_NAME": "Aybak", "GMI_ADMIN": "AFG-SMN", "ADMIN_NAME": "Samangan", "FIPS_CNTRY": "AF", "CNTRY_NAME": "Afghanistan", "STATUS": "Provincial capital", "POP": -999.000000, "POP_RANK": 7.000000, "POP_CLASS": "Less than 50,000", "PORT_ID": 0.000000, "LABEL_FLAG": 0.000000 }, "geometry": { "type": "Point", "coordinates": [ 68.040000282301548, 36.26100006258185 ] } },
{ "type": "Feature", "properties": { "X": 68.703003, "Y": 36.132003, "OBJECTID_1": 22, "OBJECTID": 1865, "CITY_NAME": "Baghlan", "GMI_ADMIN": "AFG-BGH", "ADMIN_NAME": "Baghlan", "FIPS_CNTRY": "AF", "CNTRY_NAME": "Afghanistan", "STATUS": "Provincial capital", "POP": 108449.000000, "POP_RANK": 5.000000, "POP_CLASS": "100,000 to 249,999", "PORT_ID": 0.000000, "LABEL_FLAG": 1.000000 }, "geometry": { "type": "Point", "coordinates": [ 68.703003280914459, 36.132003068373628 ] } },
{ "type": "Feature", "properties": { "X": 69.333300, "Y": 35.016696, "OBJECTID_1": 23, "OBJECTID": 1866, "CITY_NAME": "Mahmud-E Eraqi", "GMI_ADMIN": "AFG-KAP", "ADMIN_NAME": "Kapisa", "FIPS_CNTRY": "AF", "CNTRY_NAME": "Afghanistan", "STATUS": "Provincial capital", "POP": -999.000000, "POP_RANK": 7.000000, "POP_CLASS": "Less than 50,000", "PORT_ID": 0.000000, "LABEL_FLAG": 0.000000 }, "geometry": { "type": "Point", "coordinates": [ 69.333300420256364, 35.016695995907831 ] } },
{ "type": "Feature", "properties": { "X": 69.170004, "Y": 35.013996, "OBJECTID_1": 24, "OBJECTID": 1867, "CITY_NAME": "Charikar", "GMI_ADMIN": "AFG-PRV", "ADMIN_NAME": "Parvan", "FIPS_CNTRY": "AF", "CNTRY_NAME": "Afghanistan", "STATUS": "Provincial capital", "POP": 53676.000000, "POP_RANK": 6.000000, "POP_CLASS": "50,000 to 99,999", "PORT_ID": 0.000000, "LABEL_FLAG": 0.000000 }, "geometry": { "type": "Point", "coordinates": [ 69.170004289718364, 35.01399596430133 ] } },
{ "type": "Feature", "properties": { "X": 67.811004, "Y": 34.820001, "OBJECTID_1": 25, "OBJECTID": 1868, "CITY_NAME": "Bamian", "GMI_ADMIN": "AFG-BAM", "ADMIN_NAME": "Bamian", "FIPS_CNTRY": "AF", "CNTRY_NAME": "Afghanistan", "STATUS": "Provincial capital", "POP": -999.000000, "POP_RANK": 7.000000, "POP_CLASS": "Less than 50,000", "PORT_ID": 0.000000, "LABEL_FLAG": 1.000000 }, "geometry": { "type": "Point", "coordinates": [ 67.811004326442031, 34.820000959750757 ] } },
{ "type": "Feature", "properties": { "X": 70.166700, "Y": 34.650000, "OBJECTID_1": 26, "OBJECTID": 1869, "CITY_NAME": "Mehtar Lam", "GMI_ADMIN": "AFG-LGH", "ADMIN_NAME": "Laghman", "FIPS_CNTRY": "AF", "CNTRY_NAME": "Afghanistan", "STATUS": "Provincial capital", "POP": 17345.000000, "POP_RANK": 7.000000, "POP_CLASS": "Less than 50,000", "PORT_ID": 0.000000, "LABEL_FLAG": 0.000000 }, "geometry": { "type": "Point", "coordinates": [ 70.166700287960467, 34.649999928054349 ] } },
{ "type": "Feature", "properties": { "X": 69.136758, "Y": 34.530912, "OBJECTID_1": 27, "OBJECTID": 1870, "CITY_NAME": "Kabul", "GMI_ADMIN": "AFG-KAB", "ADMIN_NAME": "Kabol", "FIPS_CNTRY": "AF", "CNTRY_NAME": "Afghanistan", "STATUS": "National and provincial capital", "POP": 3043532.000000, "POP_RANK": 2.000000, "POP_CLASS": "1,000,000 to 4,999,999", "PORT_ID": 0.000000, "LABEL_FLAG": 0.000000 }, "geometry": { "type": "Point", "coordinates": [ 69.136758291433409, 34.530911929214831 ] } },
{ "type": "Feature", "properties": { "X": 68.799996, "Y": 34.450002, "OBJECTID_1": 28, "OBJECTID": 1871, "CITY_NAME": "Mayda Shahr", "GMI_ADMIN": "AFG-VRD", "ADMIN_NAME": "Vardak", "FIPS_CNTRY": "AF", "CNTRY_NAME": "Afghanistan", "STATUS": "Provincial capital", "POP": -999.000000, "POP_RANK": 7.000000, "POP_CLASS": "Less than 50,000", "PORT_ID": 0.000000, "LABEL_FLAG": 0.000000 }, "geometry": { "type": "Point", "coordinates": [ 68.799996397960328, 34.450002004304167 ] } },
{ "type": "Feature", "properties": { "X": 68.966703, "Y": 33.966702, "OBJECTID_1": 29, "OBJECTID": 1872, "CITY_NAME": "Baraki Barak", "GMI_ADMIN": "AFG-LWG", "ADMIN_NAME": "Lowgar", "FIPS_CNTRY": "AF", "CNTRY_NAME": "Afghanistan", "STATUS": "Provincial capital", "POP": 22305.000000, "POP_RANK": 7.000000, "POP_CLASS": "Less than 50,000", "PORT_ID": 0.000000, "LABEL_FLAG": 0.000000 }, "geometry": { "type": "Point", "coordinates": [ 68.96670331215617, 33.966702013419308 ] } }
]
}
